[
  {
    "id": "f800c6c7-257a-4091-876e-cce19651d3d3",
    "title": "新豊根",
    "lat": 35.12577,
    "lon": 137.7604,
    "height": 116.5,
    "purpose": "FP",
    "type": "A",
    "year": "1972",
    "prefecture": "愛知県"
  },
  {
    "id": "f77087b0-1040-4297-b0a9-a1ecbf1c46df",
    "title": "宇連",
    "lat": 35.00888,
    "lon": 137.6485,
    "height": 65,
    "purpose": "AWI",
    "type": "G",
    "year": "1958",
    "prefecture": "愛知県"
  },
  {
    "id": "5a94c125-a47f-4cd9-97c3-28e546bbd064",
    "title": "佐久間（再）",
    "lat": 35.09952,
    "lon": 137.7941,
    "height": 155.5,
    "purpose": "FP",
    "type": "G",
    "year": ["2003"],
    "prefecture": "愛知県"
  },
  {
    "id": "71a4d884-7fd7-421e-b871-a588931b9446",
    "title": "設楽",
    "lat": 35.09027,
    "lon": 137.5525,
    "height": 129,
    "purpose": "FNAW",
    "type": "G",
    "year": ["1977"],
    "prefecture": "愛知県"
  },
  {
    "id": "d937f145-e1ce-41b3-9b3d-e7cc3ceeb47f",
    "title": "徳山",
    "lat": 35.66527,
    "lon": 136.5022,
    "height": 161,
    "purpose": "FNWIP",
    "type": "R",
    "year": "2007",
    "prefecture": "岐阜県"
  },
  {
    "id": "bd8d3987-9f20-4347-b0e5-d715f42502ea",
    "title": "阿木川",
    "lat": 35.42472,
    "lon": 137.43,
    "height": 101.5,
    "purpose": "FNWI",
    "type": "R",
    "year": "1990",
    "prefecture": "岐阜県"
  },
  {
    "id": "0eaf4442-9a2e-4fc8-8fa8-efa475c0c3aa",
    "title": "御母衣",
    "lat": 36.13813,
    "lon": 136.9104,
    "height": 131,
    "purpose": "P",
    "type": "R",
    "year": "1961",
    "prefecture": "岐阜県"
  },
  {
    "id": "4b2e7a6c-24e5-4773-b759-fdaf24d9e328",
    "title": "畑薙第一",
    "lat": 35.32138,
    "lon": 138.1833,
    "height": 125,
    "purpose": "P",
    "type": "HG",
    "year": "1962",
    "prefecture": "静岡県"
  },
  {
    "id": "cdaf8441-d2a8-492f-807a-15007826a7bb",
    "title": "大井川",
    "lat": 35.16452,
    "lon": 138.1424,
    "height": 33.5,
    "purpose": "P",
    "type": "G",
    "year": "1936",
    "prefecture": "静岡県"
  },
  {
    "id": "1a29cb53-9920-493c-ab80-4a6c78b97fa7",
    "title": "井川",
    "lat": 35.21005,
    "lon": 138.2227,
    "height": 103.6,
    "purpose": "P",
    "type": "HG",
    "year": "1957",
    "prefecture": "静岡県"
  },
  {
    "id": "ad11b752-f01f-420f-89c3-466103f874ba",
    "title": "青蓮寺",
    "lat": 34.60427,
    "lon": 136.1199,
    "height": 82,
    "purpose": "FNAWP",
    "type": "A",
    "year": "1970",
    "prefecture": "三重県"
  },
  {
    "id": "95e6d89e-72b9-4c7c-9a61-673e23d9fd07",
    "title": "宮川",
    "lat": 34.28652,
    "lon": 136.196,
    "height": 88.5,
    "purpose": "FNP",
    "type": "G",
    "year": "1956",
    "prefecture": "三重県"
  }
]
